{
"type": "FeatureCollection",
"crs": { "type": "name", "properties": { "name": "urn:ogc:def:crs:OGC:1.3:CRS84" } },
                                                                                
"features": [
{ "type": "Feature", "properties": { "SYMBOL": "2301,2", "ANGLE": 0.000000, "name": "Odranci" }, "geometry": { "type": "Point", "coordinates": [ 16.278571165709064, 46.587880098950031 ] } },
{ "type": "Feature", "properties": { "SYMBOL": "2301,2", "ANGLE": 0.000000, "name": "&#268;ernelavci" }, "geometry": { "type": "Point", "coordinates": [ 16.141199131687348, 46.669220345115122 ] } },
{ "type": "Feature", "properties": { "SYMBOL": "2301,2", "ANGLE": 0.000000, "name": "Bakovci" }, "geometry": { "type": "Point", "coordinates": [ 16.148451768101758, 46.618136785930346 ] } },
{ "type": "Feature", "properties": { "SYMBOL": "2301,2", "ANGLE": 0.000000, "name": "Krog" }, "geometry": { "type": "Point", "coordinates": [ 16.141510546544097, 46.637369060264653 ] } },
{ "type": "Feature", "properties": { "SYMBOL": "2301,2", "ANGLE": 0.000000, "name": "Rogoza" }, "geometry": { "type": "Point", "coordinates": [ 15.683484361162202, 46.499649678584625 ] } },
{ "type": "Feature", "properties": { "SYMBOL": "2301,2", "ANGLE": 0.000000, "name": "Hotinja vas" }, "geometry": { "type": "Point", "coordinates": [ 15.678581277515368, 46.466682748489816 ] } },
{ "type": "Feature", "properties": { "SYMBOL": "2301,2", "ANGLE": 0.000000, "name": "Radizelj" }, "geometry": { "type": "Point", "coordinates": [ 15.646288689789699, 46.469298132828897 ] } },
{ "type": "Feature", "properties": { "SYMBOL": "2301,2", "ANGLE": 0.000000, "name": "Zgornji Duplek" }, "geometry": { "type": "Point", "coordinates": [ 15.731497288967249, 46.516965194659036 ] } },
{ "type": "Feature", "properties": { "SYMBOL": "2301,2", "ANGLE": 0.000000, "name": "Ra&#269;e" }, "geometry": { "type": "Point", "coordinates": [ 15.682416879879082, 46.453164671684604 ] } },
{ "type": "Feature", "properties": { "SYMBOL": "2301,2", "ANGLE": 0.000000, "name": "Kotlje" }, "geometry": { "type": "Point", "coordinates": [ 14.988352277869714, 46.517058195790987 ] } },
{ "type": "Feature", "properties": { "SYMBOL": "2301,2", "ANGLE": 0.000000, "name": "Pame&#269;e" }, "geometry": { "type": "Point", "coordinates": [ 15.084267523362788, 46.536260753544404 ] } },
{ "type": "Feature", "properties": { "SYMBOL": "2301,2", "ANGLE": 0.000000, "name": "&#352;martno" }, "geometry": { "type": "Point", "coordinates": [ 15.111952198326104, 46.494132748916563 ] } },
{ "type": "Feature", "properties": { "SYMBOL": "2301,2", "ANGLE": 0.000000, "name": "Ravne" }, "geometry": { "type": "Point", "coordinates": [ 15.06592433300292, 46.400914592713555 ] } },
{ "type": "Feature", "properties": { "SYMBOL": "2301,2", "ANGLE": 0.000000, "name": "Dol" }, "geometry": { "type": "Point", "coordinates": [ 15.119213264799573, 46.141079480389642 ] } },
{ "type": "Feature", "properties": { "SYMBOL": "2301,2", "ANGLE": 0.000000, "name": "Kisovec" }, "geometry": { "type": "Point", "coordinates": [ 14.965345192978635, 46.144304063637414 ] } },
{ "type": "Feature", "properties": { "SYMBOL": "2301,2", "ANGLE": 0.000000, "name": "&#352;marca" }, "geometry": { "type": "Point", "coordinates": [ 14.598891772745713, 46.193126679346165 ] } },
{ "type": "Feature", "properties": { "SYMBOL": "2301,2", "ANGLE": 0.000000, "name": "Vir" }, "geometry": { "type": "Point", "coordinates": [ 14.611266588960829, 46.147215827821704 ] } },
{ "type": "Feature", "properties": { "SYMBOL": "2301,2", "ANGLE": 0.000000, "name": "Zgornje Pirni&#269;e" }, "geometry": { "type": "Point", "coordinates": [ 14.432509423920729, 46.139715586666263 ] } },
{ "type": "Feature", "properties": { "SYMBOL": "2301,2", "ANGLE": 0.000000, "name": "Radomlje" }, "geometry": { "type": "Point", "coordinates": [ 14.614190399189997, 46.17320567165568 ] } },
{ "type": "Feature", "properties": { "SYMBOL": "2301,2", "ANGLE": 0.000000, "name": "Dob" }, "geometry": { "type": "Point", "coordinates": [ 14.628927824140364, 46.148489616355384 ] } },
{ "type": "Feature", "properties": { "SYMBOL": "2301,2", "ANGLE": 0.000000, "name": "Mekinje" }, "geometry": { "type": "Point", "coordinates": [ 14.616653889036769, 46.237522112219168 ] } },
{ "type": "Feature", "properties": { "SYMBOL": "2301,2", "ANGLE": 0.000000, "name": "Log" }, "geometry": { "type": "Point", "coordinates": [ 14.363910843132404, 46.010868355152766 ] } },
{ "type": "Feature", "properties": { "SYMBOL": "2301,2", "ANGLE": 0.000000, "name": "&#352;marje - Sap" }, "geometry": { "type": "Point", "coordinates": [ 14.616486091240446, 45.969892561806887 ] } },
{ "type": "Feature", "properties": { "SYMBOL": "2301,2", "ANGLE": 0.000000, "name": "Notranje Gorice" }, "geometry": { "type": "Point", "coordinates": [ 14.403298501726516, 45.98672073503905 ] } },
{ "type": "Feature", "properties": { "SYMBOL": "2301,2", "ANGLE": 0.000000, "name": "Verd" }, "geometry": { "type": "Point", "coordinates": [ 14.298677583985056, 45.954069726240462 ] } },
{ "type": "Feature", "properties": { "SYMBOL": "2301,2", "ANGLE": 0.000000, "name": "Preserje" }, "geometry": { "type": "Point", "coordinates": [ 14.600441683206318, 46.167152370600164 ] } },
{ "type": "Feature", "properties": { "SYMBOL": "2301,2", "ANGLE": 0.000000, "name": "Vnanje Gorice" }, "geometry": { "type": "Point", "coordinates": [ 14.42362532346352, 46.005518137010164 ] } },
{ "type": "Feature", "properties": { "SYMBOL": "2301,2", "ANGLE": 0.000000, "name": "Dragomer" }, "geometry": { "type": "Point", "coordinates": [ 14.384635731239301, 46.019620043640749 ] } },
{ "type": "Feature", "properties": { "SYMBOL": "2301,2", "ANGLE": 0.000000, "name": "Bistrica" }, "geometry": { "type": "Point", "coordinates": [ 14.295724926996281, 46.359743385240137 ] } },
{ "type": "Feature", "properties": { "SYMBOL": "2301,2", "ANGLE": 0.000000, "name": "Hru&#353;ica" }, "geometry": { "type": "Point", "coordinates": [ 14.024269054192853, 46.448162485778994 ] } },
{ "type": "Feature", "properties": { "SYMBOL": "2301,2", "ANGLE": 0.000000, "name": "&#352;en&#269;ur" }, "geometry": { "type": "Point", "coordinates": [ 14.423257137789689, 46.244262848728113 ] } },
{ "type": "Feature", "properties": { "SYMBOL": "2301,2", "ANGLE": 0.000000, "name": "Kokrica" }, "geometry": { "type": "Point", "coordinates": [ 14.363169242248839, 46.267830033734533 ] } },
{ "type": "Feature", "properties": { "SYMBOL": "2301,2", "ANGLE": 0.000000, "name": "Britof" }, "geometry": { "type": "Point", "coordinates": [ 14.390310960341107, 46.259543798895834 ] } },
{ "type": "Feature", "properties": { "SYMBOL": "2301,2", "ANGLE": 0.000000, "name": "Mlaka" }, "geometry": { "type": "Point", "coordinates": [ 14.348898580346839, 46.273282570771883 ] } },
{ "type": "Feature", "properties": { "SYMBOL": "2301,2", "ANGLE": 0.000000, "name": "Golnik" }, "geometry": { "type": "Point", "coordinates": [ 14.334526458057612, 46.326844990374283 ] } },
{ "type": "Feature", "properties": { "SYMBOL": "2301,2", "ANGLE": 0.000000, "name": "Naklo" }, "geometry": { "type": "Point", "coordinates": [ 14.321379482018266, 46.271704786106298 ] } },
{ "type": "Feature", "properties": { "SYMBOL": "2301,2", "ANGLE": 0.000000, "name": "Zgornje Bitnje" }, "geometry": { "type": "Point", "coordinates": [ 14.335819625702722, 46.220370732271377 ] } },
{ "type": "Feature", "properties": { "SYMBOL": "2301,2", "ANGLE": 0.000000, "name": "Solkan" }, "geometry": { "type": "Point", "coordinates": [ 13.649403169421781, 45.969413393374211 ] } },
{ "type": "Feature", "properties": { "SYMBOL": "2301,2", "ANGLE": 0.000000, "name": "Ren&#269;e" }, "geometry": { "type": "Point", "coordinates": [ 13.673462461634225, 45.890065408816604 ] } },
{ "type": "Feature", "properties": { "SYMBOL": "2301,2", "ANGLE": 0.000000, "name": "&#352;empas" }, "geometry": { "type": "Point", "coordinates": [ 13.748086722823636, 45.927822886173729 ] } },
{ "type": "Feature", "properties": { "SYMBOL": "2301,2", "ANGLE": 0.000000, "name": "Vrtojba" }, "geometry": { "type": "Point", "coordinates": [ 13.637557149945827, 45.911911618650691 ] } },
{ "type": "Feature", "properties": { "SYMBOL": "2301,2", "ANGLE": 0.000000, "name": "Kromberk" }, "geometry": { "type": "Point", "coordinates": [ 13.672803967194135, 45.962130091172746 ] } },
{ "type": "Feature", "properties": { "SYMBOL": "2301,2", "ANGLE": 0.000000, "name": "Bilje" }, "geometry": { "type": "Point", "coordinates": [ 13.639353008755579, 45.893847417556017 ] } },
{ "type": "Feature", "properties": { "SYMBOL": "2301,2", "ANGLE": 0.000000, "name": "Prva&#269;ina" }, "geometry": { "type": "Point", "coordinates": [ 13.719342938219727, 45.89106244660087 ] } },
{ "type": "Feature", "properties": { "SYMBOL": "2301,2", "ANGLE": 0.000000, "name": "Jagodje" }, "geometry": { "type": "Point", "coordinates": [ 13.650575461127335, 45.529961918363568 ] } },
{ "type": "Feature", "properties": { "SYMBOL": "2301,2", "ANGLE": 0.000000, "name": "Spodnje &#352;kofije" }, "geometry": { "type": "Point", "coordinates": [ 13.796811683724615, 45.570472682457634 ] } },
{ "type": "Feature", "properties": { "SYMBOL": "2301,2", "ANGLE": 0.000000, "name": "Bertoki" }, "geometry": { "type": "Point", "coordinates": [ 13.777488549824843, 45.539965078517149 ] } },
{ "type": "Feature", "properties": { "SYMBOL": "2301,2", "ANGLE": 0.000000, "name": "Sveti Anton" }, "geometry": { "type": "Point", "coordinates": [ 13.835752004675539, 45.522893519413202 ] } },
{ "type": "Feature", "properties": { "SYMBOL": "2301,1", "ANGLE": 0.000000, "name": "Hodo&#353;" }, "geometry": { "type": "Point", "coordinates": [ 16.328579896126495, 46.828060880881232 ] } },
{ "type": "Feature", "properties": { "SYMBOL": "2301,1", "ANGLE": 0.000000, "name": "&#352;entjan&#382;" }, "geometry": { "type": "Point", "coordinates": [ 15.173175348784822, 46.010975757901875 ] } },
{ "type": "Feature", "properties": { "SYMBOL": "2301,1", "ANGLE": 0.000000, "name": "Podljubelj" }, "geometry": { "type": "Point", "coordinates": [ 14.288990226072571, 46.397893954889419 ] } },
{ "type": "Feature", "properties": { "SYMBOL": "2301,1", "ANGLE": 0.000000, "name": "Podkoren" }, "geometry": { "type": "Point", "coordinates": [ 13.758114141043684, 46.496992782690477 ] } },
{ "type": "Feature", "properties": { "SYMBOL": "2301,1", "ANGLE": 0.000000, "name": "Rate&#269;e" }, "geometry": { "type": "Point", "coordinates": [ 13.72394659087721, 46.499854684764472 ] } },
{ "type": "Feature", "properties": { "SYMBOL": "2301,1", "ANGLE": 0.000000, "name": "&#268;ezso&#269;a" }, "geometry": { "type": "Point", "coordinates": [ 13.552056807728482, 46.319998089345269 ] } },
{ "type": "Feature", "properties": { "SYMBOL": "2301,1", "ANGLE": 0.000000, "name": "&#381;aga" }, "geometry": { "type": "Point", "coordinates": [ 13.483672300233115, 46.302914708251095 ] } },
{ "type": "Feature", "properties": { "SYMBOL": "2301,1", "ANGLE": 0.000000, "name": "Trenta" }, "geometry": { "type": "Point", "coordinates": [ 13.757639392250182, 46.380723698059917 ] } },
{ "type": "Feature", "properties": { "SYMBOL": "2301,1", "ANGLE": 0.000000, "name": "Log pod Mangartom" }, "geometry": { "type": "Point", "coordinates": [ 13.607204235825295, 46.407124798613687 ] } },
{ "type": "Feature", "properties": { "SYMBOL": "2301,1", "ANGLE": 0.000000, "name": "So&#269;a" }, "geometry": { "type": "Point", "coordinates": [ 13.673804593197884, 46.343881319692549 ] } },
{ "type": "Feature", "properties": { "SYMBOL": "2301,1", "ANGLE": 0.000000, "name": "Lepena" }, "geometry": { "type": "Point", "coordinates": [ 13.680601928382726, 46.308466197435791 ] } },
{ "type": "Feature", "properties": { "SYMBOL": "2301,1", "ANGLE": 0.000000, "name": "Breginj" }, "geometry": { "type": "Point", "coordinates": [ 13.43206170624201, 46.26233660132074 ] } },
{ "type": "Feature", "properties": { "SYMBOL": "2301,1", "ANGLE": 0.000000, "name": "Krn" }, "geometry": { "type": "Point", "coordinates": [ 13.672847198523657, 46.234621042919855 ] } },
{ "type": "Feature", "properties": { "SYMBOL": "2301,1", "ANGLE": 0.000000, "name": "Stara Fu&#382;ina" }, "geometry": { "type": "Point", "coordinates": [ 13.897382487198987, 46.287690117187985 ] } },
{ "type": "Feature", "properties": { "SYMBOL": "2301,1", "ANGLE": 0.000000, "name": "Zgornja Radovna" }, "geometry": { "type": "Point", "coordinates": [ 13.932011653615012, 46.428509595107286 ] } },
{ "type": "Feature", "properties": { "SYMBOL": "2301,1", "ANGLE": 0.000000, "name": "Rib&#269;ev Laz" }, "geometry": { "type": "Point", "coordinates": [ 13.889564627221908, 46.27000216196187 ] } },
{ "type": "Feature", "properties": { "SYMBOL": "2301,1", "ANGLE": 0.000000, "name": "Begunje na Gorenjskem" }, "geometry": { "type": "Point", "coordinates": [ 14.203462738245511, 46.377354627449357 ] } },
{ "type": "Feature", "properties": { "SYMBOL": "2301,1", "ANGLE": 0.000000, "name": "Kropa" }, "geometry": { "type": "Point", "coordinates": [ 14.209874927861433, 46.291296906500541 ] } },
{ "type": "Feature", "properties": { "SYMBOL": "2301,1", "ANGLE": 0.000000, "name": "Brezje" }, "geometry": { "type": "Point", "coordinates": [ 14.219117178019468, 46.332590061610709 ] } },
{ "type": "Feature", "properties": { "SYMBOL": "2301,1", "ANGLE": 0.000000, "name": "Dra&#382;go&#353;e" }, "geometry": { "type": "Point", "coordinates": [ 14.182703341021446, 46.253047006972579 ] } },
{ "type": "Feature", "properties": { "SYMBOL": "2301,1", "ANGLE": 0.000000, "name": "Zali Log" }, "geometry": { "type": "Point", "coordinates": [ 14.104916209779686, 46.209342995631019 ] } },
{ "type": "Feature", "properties": { "SYMBOL": "2301,1", "ANGLE": 0.000000, "name": "Grahovo ob Ba&#269;i" }, "geometry": { "type": "Point", "coordinates": [ 13.866655181767447, 46.158974552325446 ] } },
{ "type": "Feature", "properties": { "SYMBOL": "2301,1", "ANGLE": 0.000000, "name": "Idrsko" }, "geometry": { "type": "Point", "coordinates": [ 13.595109969742218, 46.232407956671267 ] } },
{ "type": "Feature", "properties": { "SYMBOL": "2301,1", "ANGLE": 0.000000, "name": "Robi&#269;" }, "geometry": { "type": "Point", "coordinates": [ 13.517977443712718, 46.244050748488405 ] } },
{ "type": "Feature", "properties": { "SYMBOL": "2301,1", "ANGLE": 0.000000, "name": "Ro&#269;inj" }, "geometry": { "type": "Point", "coordinates": [ 13.676066266956425, 46.109009371610675 ] } },
{ "type": "Feature", "properties": { "SYMBOL": "2301,1", "ANGLE": 0.000000, "name": "Ba&#269;a pri Modreju" }, "geometry": { "type": "Point", "coordinates": [ 13.769361664997676, 46.149868252847483 ] } },
{ "type": "Feature", "properties": { "SYMBOL": "2301,1", "ANGLE": 0.000000, "name": "Dolenja Trebu&#353;a" }, "geometry": { "type": "Point", "coordinates": [ 13.843243639827792, 46.094632426383519 ] } },
{ "type": "Feature", "properties": { "SYMBOL": "2301,1", "ANGLE": 0.000000, "name": "Trboje" }, "geometry": { "type": "Point", "coordinates": [ 14.416649114614007, 46.198073153141316 ] } },
{ "type": "Feature", "properties": { "SYMBOL": "2301,1", "ANGLE": 0.000000, "name": "Poljane" }, "geometry": { "type": "Point", "coordinates": [ 14.188420387579555, 46.122986320995743 ] } },
{ "type": "Feature", "properties": { "SYMBOL": "2301,1", "ANGLE": 0.000000, "name": "Sol&#269;ava" }, "geometry": { "type": "Point", "coordinates": [ 14.69519371378437, 46.41752229706173 ] } },
{ "type": "Feature", "properties": { "SYMBOL": "2301,1", "ANGLE": 0.000000, "name": "Logarska Dolina" }, "geometry": { "type": "Point", "coordinates": [ 14.642895455955079, 46.417976927211598 ] } },
{ "type": "Feature", "properties": { "SYMBOL": "2301,1", "ANGLE": 0.000000, "name": "Kamni&#353;ka Bistrica" }, "geometry": { "type": "Point", "coordinates": [ 14.594985726800996, 46.326923659235497 ] } },
{ "type": "Feature", "properties": { "SYMBOL": "2301,1", "ANGLE": 0.000000, "name": "Stahovica" }, "geometry": { "type": "Point", "coordinates": [ 14.613204022061492, 46.271519848912142 ] } },
{ "type": "Feature", "properties": { "SYMBOL": "2301,1", "ANGLE": 0.000000, "name": "Libeli&#269;e" }, "geometry": { "type": "Point", "coordinates": [ 14.946415586598825, 46.615829000665947 ] } },
{ "type": "Feature", "properties": { "SYMBOL": "2301,1", "ANGLE": 0.000000, "name": "Brezno" }, "geometry": { "type": "Point", "coordinates": [ 15.325257062466411, 46.596630712568135 ] } },
{ "type": "Feature", "properties": { "SYMBOL": "2301,1", "ANGLE": 0.000000, "name": "Zgrornja Kapla" }, "geometry": { "type": "Point", "coordinates": [ 15.362213728405786, 46.634306470181798 ] } },
{ "type": "Feature", "properties": { "SYMBOL": "2301,1", "ANGLE": 0.000000, "name": "Zavodnje" }, "geometry": { "type": "Point", "coordinates": [ 15.019309173807226, 46.42454777379141 ] } },
{ "type": "Feature", "properties": { "SYMBOL": "2301,1", "ANGLE": 0.000000, "name": "Radmirje" }, "geometry": { "type": "Point", "coordinates": [ 14.853398520141733, 46.327486015149134 ] } },
{ "type": "Feature", "properties": { "SYMBOL": "2301,1", "ANGLE": 0.000000, "name": "Motnik" }, "geometry": { "type": "Point", "coordinates": [ 14.892873029536963, 46.217607888392621 ] } },
{ "type": "Feature", "properties": { "SYMBOL": "2301,1", "ANGLE": 0.000000, "name": "Trojane" }, "geometry": { "type": "Point", "coordinates": [ 14.884185838995281, 46.1889203706911 ] } },
{ "type": "Feature", "properties": { "SYMBOL": "2301,1", "ANGLE": 0.000000, "name": "Va&#269;e" }, "geometry": { "type": "Point", "coordinates": [ 14.841056493275827, 46.119295381182567 ] } },
{ "type": "Feature", "properties": { "SYMBOL": "2301,1", "ANGLE": 0.000000, "name": "Braslov&#269;e" }, "geometry": { "type": "Point", "coordinates": [ 15.042726441986973, 46.288371874950862 ] } },
{ "type": "Feature", "properties": { "SYMBOL": "2301,1", "ANGLE": 0.000000, "name": "Liboje" }, "geometry": { "type": "Point", "coordinates": [ 15.19855988378534, 46.205819435292184 ] } },
{ "type": "Feature", "properties": { "SYMBOL": "2301,1", "ANGLE": 0.000000, "name": "Gornji Doli&#269;" }, "geometry": { "type": "Point", "coordinates": [ 15.191345356019468, 46.426215550474993 ] } },
{ "type": "Feature", "properties": { "SYMBOL": "2301,1", "ANGLE": 0.000000, "name": "Spodnji Doli&#269;" }, "geometry": { "type": "Point", "coordinates": [ 15.264830429475436, 46.407177264150562 ] } },
{ "type": "Feature", "properties": { "SYMBOL": "2301,1", "ANGLE": 0.000000, "name": "Oti&#353;ki Vrh" }, "geometry": { "type": "Point", "coordinates": [ 15.055556858295329, 46.573591484628885 ] } },
{ "type": "Feature", "properties": { "SYMBOL": "2301,1", "ANGLE": 0.000000, "name": "Tepanje" }, "geometry": { "type": "Point", "coordinates": [ 15.468499114907269, 46.34863360981052 ] } },
{ "type": "Feature", "properties": { "SYMBOL": "2301,1", "ANGLE": 0.000000, "name": "Stranice" }, "geometry": { "type": "Point", "coordinates": [ 15.366581529587567, 46.364523082367654 ] } },
{ "type": "Feature", "properties": { "SYMBOL": "2301,1", "ANGLE": 0.000000, "name": "Frankolovo" }, "geometry": { "type": "Point", "coordinates": [ 15.316830819862838, 46.323441460968731 ] } },
{ "type": "Feature", "properties": { "SYMBOL": "2301,1", "ANGLE": 0.000000, "name": "&#352;martno na Pohorju" }, "geometry": { "type": "Point", "coordinates": [ 15.497905594142667, 46.454112130801391 ] } },
{ "type": "Feature", "properties": { "SYMBOL": "2301,1", "ANGLE": 0.000000, "name": "Veliko Trnje" }, "geometry": { "type": "Point", "coordinates": [ 15.504673047917917, 46.414946004928296 ] } },
{ "type": "Feature", "properties": { "SYMBOL": "2301,1", "ANGLE": 0.000000, "name": "Pesnica pri Mariboru" }, "geometry": { "type": "Point", "coordinates": [ 15.677066149109104, 46.61270937125127 ] } },
{ "type": "Feature", "properties": { "SYMBOL": "2301,1", "ANGLE": 0.000000, "name": "Trate" }, "geometry": { "type": "Point", "coordinates": [ 15.790230258147524, 46.698623850333192 ] } },
{ "type": "Feature", "properties": { "SYMBOL": "2301,1", "ANGLE": 0.000000, "name": "Benedikt" }, "geometry": { "type": "Point", "coordinates": [ 15.889045266286924, 46.612140918911649 ] } },
{ "type": "Feature", "properties": { "SYMBOL": "2301,1", "ANGLE": 0.000000, "name": "Trnovska vas" }, "geometry": { "type": "Point", "coordinates": [ 15.888905202858808, 46.519430401589062 ] } },
{ "type": "Feature", "properties": { "SYMBOL": "2301,1", "ANGLE": 0.000000, "name": "Dornava" }, "geometry": { "type": "Point", "coordinates": [ 15.957326308063713, 46.435478610715329 ] } },
{ "type": "Feature", "properties": { "SYMBOL": "2301,1", "ANGLE": 0.000000, "name": "Moravci" }, "geometry": { "type": "Point", "coordinates": [ 16.042982501947428, 46.520764626670513 ] } },
{ "type": "Feature", "properties": { "SYMBOL": "2301,1", "ANGLE": 0.000000, "name": "Hlaponci" }, "geometry": { "type": "Point", "coordinates": [ 15.981322563228634, 46.467462394689889 ] } },
{ "type": "Feature", "properties": { "SYMBOL": "2301,1", "ANGLE": 0.000000, "name": "Savci" }, "geometry": { "type": "Point", "coordinates": [ 16.048033034509977, 46.478275795405459 ] } },
{ "type": "Feature", "properties": { "SYMBOL": "2301,1", "ANGLE": 0.000000, "name": "Videm pri Ptuju" }, "geometry": { "type": "Point", "coordinates": [ 15.902076105346037, 46.369595914382415 ] } },
{ "type": "Feature", "properties": { "SYMBOL": "2301,1", "ANGLE": 0.000000, "name": "Stoperce" }, "geometry": { "type": "Point", "coordinates": [ 15.716950114978989, 46.286486455200574 ] } },
{ "type": "Feature", "properties": { "SYMBOL": "2301,1", "ANGLE": 0.000000, "name": "&#381;i&#269;e" }, "geometry": { "type": "Point", "coordinates": [ 15.483403547128862, 46.314765393436026 ] } },
{ "type": "Feature", "properties": { "SYMBOL": "2301,1", "ANGLE": 0.000000, "name": "Ponikva" }, "geometry": { "type": "Point", "coordinates": [ 15.449610127527723, 46.254711419429704 ] } },
{ "type": "Feature", "properties": { "SYMBOL": "2301,1", "ANGLE": 0.000000, "name": "Kri&#382;evci" }, "geometry": { "type": "Point", "coordinates": [ 16.234007718121081, 46.780671433965097 ] } },
{ "type": "Feature", "properties": { "SYMBOL": "2301,1", "ANGLE": 0.000000, "name": "Grad" }, "geometry": { "type": "Point", "coordinates": [ 16.094663636289173, 46.801652983336083 ] } },
{ "type": "Feature", "properties": { "SYMBOL": "2301,1", "ANGLE": 0.000000, "name": "Apa&#269;e" }, "geometry": { "type": "Point", "coordinates": [ 15.804470204603133, 46.374370473047925 ] } },
{ "type": "Feature", "properties": { "SYMBOL": "2301,1", "ANGLE": 0.000000, "name": "Makole" }, "geometry": { "type": "Point", "coordinates": [ 15.6709848269495, 46.316522351605371 ] } },
{ "type": "Feature", "properties": { "SYMBOL": "2301,1", "ANGLE": 0.000000, "name": "Jurklo&#353;ter" }, "geometry": { "type": "Point", "coordinates": [ 15.336075095538963, 46.107790080177686 ] } },
{ "type": "Feature", "properties": { "SYMBOL": "2301,1", "ANGLE": 0.000000, "name": "Breze" }, "geometry": { "type": "Point", "coordinates": [ 15.355090013455769, 46.168600389990587 ] } },
{ "type": "Feature", "properties": { "SYMBOL": "2301,1", "ANGLE": 0.000000, "name": "Planina pri Sevnici" }, "geometry": { "type": "Point", "coordinates": [ 15.407846362489693, 46.104791636697747 ] } },
{ "type": "Feature", "properties": { "SYMBOL": "2301,1", "ANGLE": 0.000000, "name": "Grobelno" }, "geometry": { "type": "Point", "coordinates": [ 15.443495546383256, 46.207837018081221 ] } },
{ "type": "Feature", "properties": { "SYMBOL": "2301,1", "ANGLE": 0.000000, "name": "Vir&#353;tanj" }, "geometry": { "type": "Point", "coordinates": [ 15.565450192597735, 46.129294939364087 ] } },
{ "type": "Feature", "properties": { "SYMBOL": "2301,1", "ANGLE": 0.000000, "name": "&#381;egar" }, "geometry": { "type": "Point", "coordinates": [ 15.450377421092378, 46.133649725964233 ] } },
{ "type": "Feature", "properties": { "SYMBOL": "2301,1", "ANGLE": 0.000000, "name": "Kuzma" }, "geometry": { "type": "Point", "coordinates": [ 16.086296834148548, 46.840057154846512 ] } },
{ "type": "Feature", "properties": { "SYMBOL": "2301,1", "ANGLE": 0.000000, "name": "Ma&#269;kovci" }, "geometry": { "type": "Point", "coordinates": [ 16.16640395263299, 46.783942775038845 ] } },
{ "type": "Feature", "properties": { "SYMBOL": "2301,1", "ANGLE": 0.000000, "name": "Moravske Toplice" }, "geometry": { "type": "Point", "coordinates": [ 16.230928608016516, 46.692718230674018 ] } },
{ "type": "Feature", "properties": { "SYMBOL": "2301,1", "ANGLE": 0.000000, "name": "Selo" }, "geometry": { "type": "Point", "coordinates": [ 16.267258193397357, 46.736720696899546 ] } },
{ "type": "Feature", "properties": { "SYMBOL": "2301,1", "ANGLE": 0.000000, "name": "Kobilje" }, "geometry": { "type": "Point", "coordinates": [ 16.398145212904275, 46.685942926770579 ] } },
{ "type": "Feature", "properties": { "SYMBOL": "2301,1", "ANGLE": 0.000000, "name": "Ver&#382;ej" }, "geometry": { "type": "Point", "coordinates": [ 16.161529862317462, 46.583929897731494 ] } },
{ "type": "Feature", "properties": { "SYMBOL": "2301,1", "ANGLE": 0.000000, "name": "Miklav&#382; pri Ormo&#382;u" }, "geometry": { "type": "Point", "coordinates": [ 16.230678222260472, 46.46492217394222 ] } },
{ "type": "Feature", "properties": { "SYMBOL": "2301,1", "ANGLE": 0.000000, "name": "Razkri&#382;je" }, "geometry": { "type": "Point", "coordinates": [ 16.280326797086971, 46.525107592889 ] } },
{ "type": "Feature", "properties": { "SYMBOL": "2301,1", "ANGLE": 0.000000, "name": "Plave" }, "geometry": { "type": "Point", "coordinates": [ 13.589389079155573, 46.038328860381796 ] } },
{ "type": "Feature", "properties": { "SYMBOL": "2301,1", "ANGLE": 0.000000, "name": "Neblo" }, "geometry": { "type": "Point", "coordinates": [ 13.499544121866764, 46.006949973208378 ] } },
{ "type": "Feature", "properties": { "SYMBOL": "2301,1", "ANGLE": 0.000000, "name": "Banj&#353;ice" }, "geometry": { "type": "Point", "coordinates": [ 13.708699350261099, 46.061943977052593 ] } },
{ "type": "Feature", "properties": { "SYMBOL": "2301,1", "ANGLE": 0.000000, "name": "Grgar" }, "geometry": { "type": "Point", "coordinates": [ 13.682542377213403, 46.000235878552139 ] } },
{ "type": "Feature", "properties": { "SYMBOL": "2301,1", "ANGLE": 0.000000, "name": "Trnovo" }, "geometry": { "type": "Point", "coordinates": [ 13.746096978286737, 45.97308219953878 ] } },
{ "type": "Feature", "properties": { "SYMBOL": "2301,1", "ANGLE": 0.000000, "name": "Kostanjevica na Krasu" }, "geometry": { "type": "Point", "coordinates": [ 13.645506342782109, 45.843577523570275 ] } },
{ "type": "Feature", "properties": { "SYMBOL": "2301,1", "ANGLE": 0.000000, "name": "Gorjansko" }, "geometry": { "type": "Point", "coordinates": [ 13.715609973799063, 45.801603708280993 ] } },
{ "type": "Feature", "properties": { "SYMBOL": "2301,1", "ANGLE": 0.000000, "name": "Lokve" }, "geometry": { "type": "Point", "coordinates": [ 13.797253248948037, 46.010681364608665 ] } },
{ "type": "Feature", "properties": { "SYMBOL": "2301,1", "ANGLE": 0.000000, "name": "Predmeja" }, "geometry": { "type": "Point", "coordinates": [ 13.88730433239736, 45.944113253027339 ] } },
{ "type": "Feature", "properties": { "SYMBOL": "2301,1", "ANGLE": 0.000000, "name": "Trebija" }, "geometry": { "type": "Point", "coordinates": [ 14.109038788453729, 46.098909708164484 ] } },
{ "type": "Feature", "properties": { "SYMBOL": "2301,1", "ANGLE": 0.000000, "name": "Sovodenj" }, "geometry": { "type": "Point", "coordinates": [ 14.045000227441648, 46.088673643430525 ] } },
{ "type": "Feature", "properties": { "SYMBOL": "2301,1", "ANGLE": 0.000000, "name": "Col" }, "geometry": { "type": "Point", "coordinates": [ 14.004423582648334, 45.880750058000494 ] } },
{ "type": "Feature", "properties": { "SYMBOL": "2301,1", "ANGLE": 0.000000, "name": "Podkraj" }, "geometry": { "type": "Point", "coordinates": [ 14.068461260432297, 45.864825671245143 ] } },
{ "type": "Feature", "properties": { "SYMBOL": "2301,1", "ANGLE": 0.000000, "name": "Godovi&#269;" }, "geometry": { "type": "Point", "coordinates": [ 14.095734509559302, 45.957700073386711 ] } },
{ "type": "Feature", "properties": { "SYMBOL": "2301,1", "ANGLE": 0.000000, "name": "Hotedr&#353;ica" }, "geometry": { "type": "Point", "coordinates": [ 14.142794299143457, 45.930328491381594 ] } },
{ "type": "Feature", "properties": { "SYMBOL": "2301,1", "ANGLE": 0.000000, "name": "Rovte" }, "geometry": { "type": "Point", "coordinates": [ 14.182786852226517, 45.985823392846974 ] } },
{ "type": "Feature", "properties": { "SYMBOL": "2301,1", "ANGLE": 0.000000, "name": "Srednja Kanomlja" }, "geometry": { "type": "Point", "coordinates": [ 13.988577175441058, 46.023944215038881 ] } },
{ "type": "Feature", "properties": { "SYMBOL": "2301,1", "ANGLE": 0.000000, "name": "&#268;rni Vrh" }, "geometry": { "type": "Point", "coordinates": [ 14.050177959674132, 45.922912992526967 ] } },
{ "type": "Feature", "properties": { "SYMBOL": "2301,1", "ANGLE": 0.000000, "name": "Smre&#269;je" }, "geometry": { "type": "Point", "coordinates": [ 14.196106171070239, 46.015205491679723 ] } },
{ "type": "Feature", "properties": { "SYMBOL": "2301,1", "ANGLE": 0.000000, "name": "Lu&#269;ine" }, "geometry": { "type": "Point", "coordinates": [ 14.200084680852553, 46.06152601880121 ] } },
{ "type": "Feature", "properties": { "SYMBOL": "2301,1", "ANGLE": 0.000000, "name": "Podpe&#269;" }, "geometry": { "type": "Point", "coordinates": [ 14.42089946253243, 45.969941130954645 ] } },
{ "type": "Feature", "properties": { "SYMBOL": "2301,1", "ANGLE": 0.000000, "name": "Rakitna" }, "geometry": { "type": "Point", "coordinates": [ 14.440351372247591, 45.893445424672606 ] } },
{ "type": "Feature", "properties": { "SYMBOL": "2301,1", "ANGLE": 0.000000, "name": "Brest" }, "geometry": { "type": "Point", "coordinates": [ 14.496697784468257, 45.967535235417579 ] } },
{ "type": "Feature", "properties": { "SYMBOL": "2301,1", "ANGLE": 0.000000, "name": "Brezovica pri Borvnici" }, "geometry": { "type": "Point", "coordinates": [ 14.392806469594055, 45.901906817260709 ] } },
{ "type": "Feature", "properties": { "SYMBOL": "2301,1", "ANGLE": 0.000000, "name": "Jevnica" }, "geometry": { "type": "Point", "coordinates": [ 14.745163910894933, 46.081735006662221 ] } },
{ "type": "Feature", "properties": { "SYMBOL": "2301,1", "ANGLE": 0.000000, "name": "Dolsko" }, "geometry": { "type": "Point", "coordinates": [ 14.678587018739391, 46.090945355307866 ] } },
{ "type": "Feature", "properties": { "SYMBOL": "2301,1", "ANGLE": 0.000000, "name": "Turjak" }, "geometry": { "type": "Point", "coordinates": [ 14.61779812748776, 45.878255141153382 ] } },
{ "type": "Feature", "properties": { "SYMBOL": "2301,1", "ANGLE": 0.000000, "name": "&#352;kocjan" }, "geometry": { "type": "Point", "coordinates": [ 14.640817954049766, 45.9041765207552 ] } },
{ "type": "Feature", "properties": { "SYMBOL": "2301,1", "ANGLE": 0.000000, "name": "Ra&#353;ica" }, "geometry": { "type": "Point", "coordinates": [ 14.627442756242203, 45.852103584181755 ] } },
{ "type": "Feature", "properties": { "SYMBOL": "2301,1", "ANGLE": 0.000000, "name": "Golo" }, "geometry": { "type": "Point", "coordinates": [ 14.550195602641953, 45.91026433877709 ] } },
{ "type": "Feature", "properties": { "SYMBOL": "2301,1", "ANGLE": 0.000000, "name": "Rob" }, "geometry": { "type": "Point", "coordinates": [ 14.576287612535134, 45.848414882586439 ] } },
{ "type": "Feature", "properties": { "SYMBOL": "2301,1", "ANGLE": 0.000000, "name": "Kompolje" }, "geometry": { "type": "Point", "coordinates": [ 14.719945194933461, 45.81673855091605 ] } },
{ "type": "Feature", "properties": { "SYMBOL": "2301,1", "ANGLE": 0.000000, "name": "Velike Poljane" }, "geometry": { "type": "Point", "coordinates": [ 14.686304440258736, 45.792355922541937 ] } },
{ "type": "Feature", "properties": { "SYMBOL": "2301,1", "ANGLE": 0.000000, "name": "Lu&#269;e" }, "geometry": { "type": "Point", "coordinates": [ 14.73228895674437, 45.918263779441524 ] } },
{ "type": "Feature", "properties": { "SYMBOL": "2301,1", "ANGLE": 0.000000, "name": "&#381;lebi&#269;" }, "geometry": { "type": "Point", "coordinates": [ 14.693874149830199, 45.766732483228537 ] } },
{ "type": "Feature", "properties": { "SYMBOL": "2301,1", "ANGLE": 0.000000, "name": "Lu&#382;arji" }, "geometry": { "type": "Point", "coordinates": [ 14.56021438242184, 45.805163906246335 ] } },
{ "type": "Feature", "properties": { "SYMBOL": "2301,1", "ANGLE": 0.000000, "name": "Pri Cerkvi - Struge" }, "geometry": { "type": "Point", "coordinates": [ 14.780112895391106, 45.782184736098195 ] } },
{ "type": "Feature", "properties": { "SYMBOL": "2301,1", "ANGLE": 0.000000, "name": "Grahovo" }, "geometry": { "type": "Point", "coordinates": [ 14.427236489673851, 45.768939414201178 ] } },
{ "type": "Feature", "properties": { "SYMBOL": "2301,1", "ANGLE": 0.000000, "name": "Planina" }, "geometry": { "type": "Point", "coordinates": [ 14.254655977987014, 45.831779871546416 ] } },
{ "type": "Feature", "properties": { "SYMBOL": "2301,1", "ANGLE": 0.000000, "name": "Unec" }, "geometry": { "type": "Point", "coordinates": [ 14.297972527691977, 45.818760938152842 ] } },
{ "type": "Feature", "properties": { "SYMBOL": "2301,1", "ANGLE": 0.000000, "name": "Kalce" }, "geometry": { "type": "Point", "coordinates": [ 14.193021380862495, 45.894659451357278 ] } },
{ "type": "Feature", "properties": { "SYMBOL": "2301,1", "ANGLE": 0.000000, "name": "Predjama" }, "geometry": { "type": "Point", "coordinates": [ 14.132241914904704, 45.81350166447141 ] } },
{ "type": "Feature", "properties": { "SYMBOL": "2301,1", "ANGLE": 0.000000, "name": "Strane" }, "geometry": { "type": "Point", "coordinates": [ 14.092535875076956, 45.786468276061974 ] } },
{ "type": "Feature", "properties": { "SYMBOL": "2301,1", "ANGLE": 0.000000, "name": "&#352;tanjel" }, "geometry": { "type": "Point", "coordinates": [ 13.848511080566718, 45.822999379812849 ] } },
{ "type": "Feature", "properties": { "SYMBOL": "2301,1", "ANGLE": 0.000000, "name": "&#352;torje" }, "geometry": { "type": "Point", "coordinates": [ 13.930765869484169, 45.736542864724328 ] } },
{ "type": "Feature", "properties": { "SYMBOL": "2301,1", "ANGLE": 0.000000, "name": "Podnanos" }, "geometry": { "type": "Point", "coordinates": [ 13.969461564047812, 45.796488785413743 ] } },
{ "type": "Feature", "properties": { "SYMBOL": "2301,1", "ANGLE": 0.000000, "name": "Seno&#382;e&#269;e" }, "geometry": { "type": "Point", "coordinates": [ 14.049083433389901, 45.715591727963002 ] } },
{ "type": "Feature", "properties": { "SYMBOL": "2301,1", "ANGLE": 0.000000, "name": "Razdrto" }, "geometry": { "type": "Point", "coordinates": [ 14.064031101269119, 45.754924558067529 ] } },
{ "type": "Feature", "properties": { "SYMBOL": "2301,1", "ANGLE": 0.000000, "name": "Lo&#382;" }, "geometry": { "type": "Point", "coordinates": [ 14.472682134023572, 45.725294057324291 ] } },
{ "type": "Feature", "properties": { "SYMBOL": "2301,1", "ANGLE": 0.000000, "name": "Blo&#353;ka Polica" }, "geometry": { "type": "Point", "coordinates": [ 14.46943889176578, 45.762328289634105 ] } },
{ "type": "Feature", "properties": { "SYMBOL": "2301,1", "ANGLE": 0.000000, "name": "Babno Polje" }, "geometry": { "type": "Point", "coordinates": [ 14.551384366542614, 45.643839428370569 ] } },
{ "type": "Feature", "properties": { "SYMBOL": "2301,1", "ANGLE": 0.000000, "name": "Retje" }, "geometry": { "type": "Point", "coordinates": [ 14.580436471895155, 45.708399584485669 ] } },
{ "type": "Feature", "properties": { "SYMBOL": "2301,1", "ANGLE": 0.000000, "name": "Nova &#352;tifta" }, "geometry": { "type": "Point", "coordinates": [ 14.66719476397361, 45.745601909013367 ] } },
{ "type": "Feature", "properties": { "SYMBOL": "2301,1", "ANGLE": 0.000000, "name": "Gr&#269;arice" }, "geometry": { "type": "Point", "coordinates": [ 14.756280687416991, 45.652766330533261 ] } },
{ "type": "Feature", "properties": { "SYMBOL": "2301,1", "ANGLE": 0.000000, "name": "Pal&#269;je" }, "geometry": { "type": "Point", "coordinates": [ 14.260003856810934, 45.676329161207263 ] } },
{ "type": "Feature", "properties": { "SYMBOL": "2301,1", "ANGLE": 0.000000, "name": "Kozari&#353;&#269;e" }, "geometry": { "type": "Point", "coordinates": [ 14.478934091103378, 45.685236473660595 ] } },
{ "type": "Feature", "properties": { "SYMBOL": "2301,1", "ANGLE": 0.000000, "name": "Parje" }, "geometry": { "type": "Point", "coordinates": [ 14.220823093958508, 45.662435458334599 ] } },
{ "type": "Feature", "properties": { "SYMBOL": "2301,1", "ANGLE": 0.000000, "name": "Koritnice" }, "geometry": { "type": "Point", "coordinates": [ 14.286220180771814, 45.621090394590063 ] } },
{ "type": "Feature", "properties": { "SYMBOL": "2301,1", "ANGLE": 0.000000, "name": "Zabi&#269;e" }, "geometry": { "type": "Point", "coordinates": [ 14.347664841356695, 45.51462710289092 ] } },
{ "type": "Feature", "properties": { "SYMBOL": "2301,1", "ANGLE": 0.000000, "name": "Novokra&#269;ine" }, "geometry": { "type": "Point", "coordinates": [ 14.312417164035921, 45.492553358848276 ] } },
{ "type": "Feature", "properties": { "SYMBOL": "2301,1", "ANGLE": 0.000000, "name": "Jel&#353;ane" }, "geometry": { "type": "Point", "coordinates": [ 14.27595288699032, 45.50008823125664 ] } },
{ "type": "Feature", "properties": { "SYMBOL": "2301,1", "ANGLE": 0.000000, "name": "Draga" }, "geometry": { "type": "Point", "coordinates": [ 14.657678044050828, 45.631860105378166 ] } },
{ "type": "Feature", "properties": { "SYMBOL": "2301,1", "ANGLE": 0.000000, "name": "Ribjek" }, "geometry": { "type": "Point", "coordinates": [ 14.734810636041102, 45.533941125086407 ] } },
{ "type": "Feature", "properties": { "SYMBOL": "2301,1", "ANGLE": 0.000000, "name": "Anhovo" }, "geometry": { "type": "Point", "coordinates": [ 13.623472115511323, 46.058787570471097 ] } },
{ "type": "Feature", "properties": { "SYMBOL": "2301,1", "ANGLE": 0.000000, "name": "Prestranek" }, "geometry": { "type": "Point", "coordinates": [ 14.184597300161403, 45.731017193330729 ] } },
{ "type": "Feature", "properties": { "SYMBOL": "2301,1", "ANGLE": 0.000000, "name": "Ribnica" }, "geometry": { "type": "Point", "coordinates": [ 14.153964400721982, 45.634828653194816 ] } },
{ "type": "Feature", "properties": { "SYMBOL": "2301,1", "ANGLE": 0.000000, "name": "Obrov" }, "geometry": { "type": "Point", "coordinates": [ 14.090246170235714, 45.542082523202367 ] } },
{ "type": "Feature", "properties": { "SYMBOL": "2301,1", "ANGLE": 0.000000, "name": "Prem" }, "geometry": { "type": "Point", "coordinates": [ 14.186582090395722, 45.601255573063469 ] } },
{ "type": "Feature", "properties": { "SYMBOL": "2301,1", "ANGLE": 0.000000, "name": "Podgorje" }, "geometry": { "type": "Point", "coordinates": [ 13.957302009890052, 45.527850262272302 ] } },
{ "type": "Feature", "properties": { "SYMBOL": "2301,1", "ANGLE": 0.000000, "name": "Hrastovlje" }, "geometry": { "type": "Point", "coordinates": [ 13.90406847225527, 45.510208591668629 ] } },
{ "type": "Feature", "properties": { "SYMBOL": "2301,1", "ANGLE": 0.000000, "name": "Sti&#269;na" }, "geometry": { "type": "Point", "coordinates": [ 14.810281876483137, 45.955874790784748 ] } },
{ "type": "Feature", "properties": { "SYMBOL": "2301,1", "ANGLE": 0.000000, "name": "Vi&#353;nja Gora" }, "geometry": { "type": "Point", "coordinates": [ 14.749048631315837, 45.953460768987753 ] } },
{ "type": "Feature", "properties": { "SYMBOL": "2301,1", "ANGLE": 0.000000, "name": "Morav&#269;e pri Gabrovki" }, "geometry": { "type": "Point", "coordinates": [ 14.964477060741299, 45.996520032130086 ] } },
{ "type": "Feature", "properties": { "SYMBOL": "2301,1", "ANGLE": 0.000000, "name": "Zagradec" }, "geometry": { "type": "Point", "coordinates": [ 14.842195770402459, 45.860368062333961 ] } },
{ "type": "Feature", "properties": { "SYMBOL": "2301,1", "ANGLE": 0.000000, "name": "Dobrni&#269;" }, "geometry": { "type": "Point", "coordinates": [ 14.984945487441351, 45.876675723657847 ] } },
{ "type": "Feature", "properties": { "SYMBOL": "2301,1", "ANGLE": 0.000000, "name": "Podkum" }, "geometry": { "type": "Point", "coordinates": [ 15.039855516303339, 46.071627528580983 ] } },
{ "type": "Feature", "properties": { "SYMBOL": "2301,1", "ANGLE": 0.000000, "name": "&#352;entvid pri Sti&#269;ni" }, "geometry": { "type": "Point", "coordinates": [ 14.843959469093463, 45.953159808470772 ] } },
{ "type": "Feature", "properties": { "SYMBOL": "2301,1", "ANGLE": 0.000000, "name": "&#268;ate&#382;" }, "geometry": { "type": "Point", "coordinates": [ 14.963528353335208, 45.968986971456324 ] } },
{ "type": "Feature", "properties": { "SYMBOL": "2301,1", "ANGLE": 0.000000, "name": "Zbure" }, "geometry": { "type": "Point", "coordinates": [ 15.251357644315855, 45.908461609507768 ] } },
{ "type": "Feature", "properties": { "SYMBOL": "2301,1", "ANGLE": 0.000000, "name": "Rovi&#353;&#269;e" }, "geometry": { "type": "Point", "coordinates": [ 15.344082067161139, 45.95869953732398 ] } },
{ "type": "Feature", "properties": { "SYMBOL": "2301,1", "ANGLE": 0.000000, "name": "Zidani Most" }, "geometry": { "type": "Point", "coordinates": [ 15.179706272488808, 46.084925490771148 ] } },
{ "type": "Feature", "properties": { "SYMBOL": "2301,1", "ANGLE": 0.000000, "name": "Brestanica" }, "geometry": { "type": "Point", "coordinates": [ 15.472966092715426, 45.993400389166865 ] } },
{ "type": "Feature", "properties": { "SYMBOL": "2301,1", "ANGLE": 0.000000, "name": "Blanca" }, "geometry": { "type": "Point", "coordinates": [ 15.393004758282618, 45.994848494771709 ] } },
{ "type": "Feature", "properties": { "SYMBOL": "2301,1", "ANGLE": 0.000000, "name": "Veliki Kamen" }, "geometry": { "type": "Point", "coordinates": [ 15.522375207059589, 46.038196905002032 ] } },
{ "type": "Feature", "properties": { "SYMBOL": "2301,1", "ANGLE": 0.000000, "name": "Podsreda" }, "geometry": { "type": "Point", "coordinates": [ 15.590997011088389, 46.040023820239085 ] } },
{ "type": "Feature", "properties": { "SYMBOL": "2301,1", "ANGLE": 0.000000, "name": "Arti&#269;e" }, "geometry": { "type": "Point", "coordinates": [ 15.589889950694676, 45.95371986517371 ] } },
{ "type": "Feature", "properties": { "SYMBOL": "2301,1", "ANGLE": 0.000000, "name": "&#381;upelevec" }, "geometry": { "type": "Point", "coordinates": [ 15.690893838130515, 45.961389307190622 ] } },
{ "type": "Feature", "properties": { "SYMBOL": "2301,1", "ANGLE": 0.000000, "name": "Leskovec" }, "geometry": { "type": "Point", "coordinates": [ 15.47754779833615, 45.940407731652293 ] } },
{ "type": "Feature", "properties": { "SYMBOL": "2301,1", "ANGLE": 0.000000, "name": "Cerklje ob Krki" }, "geometry": { "type": "Point", "coordinates": [ 15.523449022892128, 45.884061923930375 ] } },
{ "type": "Feature", "properties": { "SYMBOL": "2301,1", "ANGLE": 0.000000, "name": "&#268;ate&#382; ob Savi" }, "geometry": { "type": "Point", "coordinates": [ 15.611549608328456, 45.881872058432513 ] } },
{ "type": "Feature", "properties": { "SYMBOL": "2301,1", "ANGLE": 0.000000, "name": "&#352;marjeta" }, "geometry": { "type": "Point", "coordinates": [ 15.25328789099958, 45.88625541628771 ] } },
{ "type": "Feature", "properties": { "SYMBOL": "2301,1", "ANGLE": 0.000000, "name": "&#352;marje&#353;ke Toplice" }, "geometry": { "type": "Point", "coordinates": [ 15.224976304530793, 45.862357301867384 ] } },
{ "type": "Feature", "properties": { "SYMBOL": "2301,1", "ANGLE": 0.000000, "name": "Dvor" }, "geometry": { "type": "Point", "coordinates": [ 14.971554268149465, 45.808649101881883 ] } },
{ "type": "Feature", "properties": { "SYMBOL": "2301,1", "ANGLE": 0.000000, "name": "Soteska" }, "geometry": { "type": "Point", "coordinates": [ 15.01786578760346, 45.782063565584011 ] } },
{ "type": "Feature", "properties": { "SYMBOL": "2301,1", "ANGLE": 0.000000, "name": "Podturn" }, "geometry": { "type": "Point", "coordinates": [ 15.044841547190636, 45.741228535706128 ] } },
{ "type": "Feature", "properties": { "SYMBOL": "2301,1", "ANGLE": 0.000000, "name": "Ur&#353;na sela" }, "geometry": { "type": "Point", "coordinates": [ 15.128451974773881, 45.719706972844989 ] } },
{ "type": "Feature", "properties": { "SYMBOL": "2301,1", "ANGLE": 0.000000, "name": "&#268;rmo&#353;njice" }, "geometry": { "type": "Point", "coordinates": [ 15.110252167544607, 45.674172748820986 ] } },
{ "type": "Feature", "properties": { "SYMBOL": "2301,1", "ANGLE": 0.000000, "name": "Gradac" }, "geometry": { "type": "Point", "coordinates": [ 15.245818767472068, 45.613024892601523 ] } },
{ "type": "Feature", "properties": { "SYMBOL": "2301,1", "ANGLE": 0.000000, "name": "Kot pri Semi&#269;u" }, "geometry": { "type": "Point", "coordinates": [ 15.163241610106743, 45.621876383483198 ] } },
{ "type": "Feature", "properties": { "SYMBOL": "2301,1", "ANGLE": 0.000000, "name": "Mala Gora" }, "geometry": { "type": "Point", "coordinates": [ 14.872245400546602, 45.690412502593489 ] } },
{ "type": "Feature", "properties": { "SYMBOL": "2301,1", "ANGLE": 0.000000, "name": "Smuka" }, "geometry": { "type": "Point", "coordinates": [ 14.936870481056143, 45.761935014762251 ] } },
{ "type": "Feature", "properties": { "SYMBOL": "2301,1", "ANGLE": 0.000000, "name": "Polom" }, "geometry": { "type": "Point", "coordinates": [ 14.844402518965754, 45.72945133621478 ] } },
{ "type": "Feature", "properties": { "SYMBOL": "2301,1", "ANGLE": 0.000000, "name": "Livold" }, "geometry": { "type": "Point", "coordinates": [ 14.896469341372573, 45.611006452686894 ] } },
{ "type": "Feature", "properties": { "SYMBOL": "2301,1", "ANGLE": 0.000000, "name": "&#352;talcerji" }, "geometry": { "type": "Point", "coordinates": [ 14.881279037947838, 45.565302666767089 ] } },
{ "type": "Feature", "properties": { "SYMBOL": "2301,1", "ANGLE": 0.000000, "name": "Ko&#269;evska Reka" }, "geometry": { "type": "Point", "coordinates": [ 14.804664048135356, 45.576533221204777 ] } },
{ "type": "Feature", "properties": { "SYMBOL": "2301,1", "ANGLE": 0.000000, "name": "Fara" }, "geometry": { "type": "Point", "coordinates": [ 14.889141295586464, 45.47811669667945 ] } },
{ "type": "Feature", "properties": { "SYMBOL": "2301,1", "ANGLE": 0.000000, "name": "Banja Loka" }, "geometry": { "type": "Point", "coordinates": [ 14.877265987079545, 45.512185683424789 ] } },
{ "type": "Feature", "properties": { "SYMBOL": "2301,1", "ANGLE": 0.000000, "name": "Mozelj" }, "geometry": { "type": "Point", "coordinates": [ 14.936021464376124, 45.584649137028578 ] } },
{ "type": "Feature", "properties": { "SYMBOL": "2301,1", "ANGLE": 0.000000, "name": "Brezovica pri Predgradu" }, "geometry": { "type": "Point", "coordinates": [ 15.044986698338057, 45.549162755424398 ] } },
{ "type": "Feature", "properties": { "SYMBOL": "2301,1", "ANGLE": 0.000000, "name": "Bistrica" }, "geometry": { "type": "Point", "coordinates": [ 15.120143410892666, 45.570301345955656 ] } },
{ "type": "Feature", "properties": { "SYMBOL": "2301,1", "ANGLE": 0.000000, "name": "Kostel" }, "geometry": { "type": "Point", "coordinates": [ 14.905879658045585, 45.507017015319555 ] } },
{ "type": "Feature", "properties": { "SYMBOL": "2301,1", "ANGLE": 0.000000, "name": "Kani&#382;arica" }, "geometry": { "type": "Point", "coordinates": [ 15.172284606848191, 45.558763127800077 ] } },
{ "type": "Feature", "properties": { "SYMBOL": "2301,1", "ANGLE": 0.000000, "name": "Dolenjci" }, "geometry": { "type": "Point", "coordinates": [ 15.302996300731094, 45.533659202574391 ] } },
{ "type": "Feature", "properties": { "SYMBOL": "2301,1", "ANGLE": 0.000000, "name": "Dragatu&#353;" }, "geometry": { "type": "Point", "coordinates": [ 15.184561087811495, 45.522638486687626 ] } },
{ "type": "Feature", "properties": { "SYMBOL": "2301,1", "ANGLE": 0.000000, "name": "Kri&#382;evci pri Ljutomeru" }, "geometry": { "type": "Point", "coordinates": [ 16.141273501083635, 46.565307520416667 ] } },
{ "type": "Feature", "properties": { "SYMBOL": "2301,1", "ANGLE": 0.000000, "name": "Svetij Jurij ob &#352;&#269;avnici" }, "geometry": { "type": "Point", "coordinates": [ 16.018732704914942, 46.567541067456027 ] } },
{ "type": "Feature", "properties": { "SYMBOL": "2301,1", "ANGLE": 0.000000, "name": "Ti&#353;ina" }, "geometry": { "type": "Point", "coordinates": [ 16.096889797467032, 46.654403321988951 ] } },
{ "type": "Feature", "properties": { "SYMBOL": "2301,1", "ANGLE": 0.000000, "name": "Dol pri Ljubljani" }, "geometry": { "type": "Point", "coordinates": [ 14.647965688143048, 46.086738029903678 ] } },
{ "type": "Feature", "properties": { "SYMBOL": "2301,1", "ANGLE": 0.000000, "name": "Destrnik" }, "geometry": { "type": "Point", "coordinates": [ 15.87840060488894, 46.492250836692627 ] } },
{ "type": "Feature", "properties": { "SYMBOL": "2301,1", "ANGLE": 0.000000, "name": "&#352;alovci" }, "geometry": { "type": "Point", "coordinates": [ 16.291800240514569, 46.823420534285376 ] } },
{ "type": "Feature", "properties": { "SYMBOL": "2301,1", "ANGLE": 0.000000, "name": "Puconci" }, "geometry": { "type": "Point", "coordinates": [ 16.158505839575952, 46.703998688444422 ] } },
{ "type": "Feature", "properties": { "SYMBOL": "2301,1", "ANGLE": 0.000000, "name": "Zgornja Hajdina" }, "geometry": { "type": "Point", "coordinates": [ 15.839329414983247, 46.403541072461557 ] } },
{ "type": "Feature", "properties": { "SYMBOL": "2301,1", "ANGLE": 0.000000, "name": "Zavr&#269;" }, "geometry": { "type": "Point", "coordinates": [ 16.049613993644897, 46.382375937872148 ] } },
{ "type": "Feature", "properties": { "SYMBOL": "2301,1", "ANGLE": 0.000000, "name": "Zgornje Jezersko" }, "geometry": { "type": "Point", "coordinates": [ 14.502608515412033, 46.395114300343849 ] } },
{ "type": "Feature", "properties": { "SYMBOL": "2301,1", "ANGLE": 0.000000, "name": "Tabor" }, "geometry": { "type": "Point", "coordinates": [ 15.020225050471007, 46.235271613595025 ] } },
{ "type": "Feature", "properties": { "SYMBOL": "2301,1", "ANGLE": 0.000000, "name": "Mirna Pe&#269;" }, "geometry": { "type": "Point", "coordinates": [ 15.087912153231976, 45.860449469091215 ] } },
{ "type": "Feature", "properties": { "SYMBOL": "2301,1", "ANGLE": 0.000000, "name": "&#381;etale" }, "geometry": { "type": "Point", "coordinates": [ 15.796196929989303, 46.274222721502355 ] } },
{ "type": "Feature", "properties": { "SYMBOL": "2301,1", "ANGLE": 0.000000, "name": "Velika Polana" }, "geometry": { "type": "Point", "coordinates": [ 16.352950765331059, 46.571979200885195 ] } },
{ "type": "Feature", "properties": { "SYMBOL": "2301,1", "ANGLE": 0.000000, "name": "Vitomarci" }, "geometry": { "type": "Point", "coordinates": [ 15.937384779433982, 46.524915013443945 ] } },
{ "type": "Feature", "properties": { "SYMBOL": "2301,1", "ANGLE": 0.000000, "name": "Dobje pri Planini" }, "geometry": { "type": "Point", "coordinates": [ 15.397986340193418, 46.13687943251729 ] } },
{ "type": "Feature", "properties": { "SYMBOL": "2301,1", "ANGLE": 0.000000, "name": "Vrba" }, "geometry": { "type": "Point", "coordinates": [ 14.155304427154432, 46.389693637416784 ] } },
{ "type": "Feature", "properties": { "SYMBOL": "2301,1", "ANGLE": 0.000000, "name": "Kokra" }, "geometry": { "type": "Point", "coordinates": [ 14.503627136766969, 46.326156386933683 ] } },
{ "type": "Feature", "properties": { "SYMBOL": "2301,1", "ANGLE": 0.000000, "name": "Gorenje" }, "geometry": { "type": "Point", "coordinates": [ 15.011392969783879, 46.344992742174689 ] } },
{ "type": "Feature", "properties": { "SYMBOL": "2301,1", "ANGLE": 0.000000, "name": "Peti&#353;ovci" }, "geometry": { "type": "Point", "coordinates": [ 16.46746529985246, 46.526103075263237 ] } },
{ "type": "Feature", "properties": { "SYMBOL": "2301,1", "ANGLE": 0.000000, "name": "Zakl" }, "geometry": { "type": "Point", "coordinates": [ 15.868043102516779, 46.325592779282552 ] } },
{ "type": "Feature", "properties": { "SYMBOL": "2301,1", "ANGLE": 0.000000, "name": "Ihan" }, "geometry": { "type": "Point", "coordinates": [ 14.621747564836257, 46.119719219382269 ] } },
{ "type": "Feature", "properties": { "SYMBOL": "2301,1", "ANGLE": 0.000000, "name": "Veliko Trebeljevo" }, "geometry": { "type": "Point", "coordinates": [ 14.742295998686854, 46.011142880185808 ] } },
{ "type": "Feature", "properties": { "SYMBOL": "2301,1", "ANGLE": 0.000000, "name": "Oto&#269;ec" }, "geometry": { "type": "Point", "coordinates": [ 15.224576607683423, 45.834689720853163 ] } },
{ "type": "Feature", "properties": { "SYMBOL": "2301,1", "ANGLE": 0.000000, "name": "Adle&#353;i&#269;i" }, "geometry": { "type": "Point", "coordinates": [ 15.314170845639755, 45.522696311718214 ] } },
{ "type": "Feature", "properties": { "SYMBOL": "2301,1", "ANGLE": 0.000000, "name": "Stara Cerkev" }, "geometry": { "type": "Point", "coordinates": [ 14.846395204440658, 45.671483990617347 ] } },
{ "type": "Feature", "properties": { "SYMBOL": "2301,1", "ANGLE": 0.000000, "name": "Vol&#269;e" }, "geometry": { "type": "Point", "coordinates": [ 13.719500646826413, 46.1730050043559 ] } },
{ "type": "Feature", "properties": { "SYMBOL": "2301,1", "ANGLE": 0.000000, "name": "Lig" }, "geometry": { "type": "Point", "coordinates": [ 13.610504144237266, 46.092641154128508 ] } },
{ "type": "Feature", "properties": { "SYMBOL": "2301,1", "ANGLE": 0.000000, "name": "Livek" }, "geometry": { "type": "Point", "coordinates": [ 13.602178424825533, 46.203005909709709 ] } },
{ "type": "Feature", "properties": { "SYMBOL": "2301,1", "ANGLE": 0.000000, "name": "Lipica" }, "geometry": { "type": "Point", "coordinates": [ 13.886377626194152, 45.666809673871526 ] } },
{ "type": "Feature", "properties": { "SYMBOL": "2301,1", "ANGLE": 0.000000, "name": "Lokev" }, "geometry": { "type": "Point", "coordinates": [ 13.934527785934366, 45.660521534936862 ] } },
{ "type": "Feature", "properties": { "SYMBOL": "2301,1", "ANGLE": 0.000000, "name": "Zgornja Sorica" }, "geometry": { "type": "Point", "coordinates": [ 14.035007167820469, 46.221796072005283 ] } },
{ "type": "Feature", "properties": { "SYMBOL": "2301,1", "ANGLE": 0.000000, "name": "Kne&#382;a" }, "geometry": { "type": "Point", "coordinates": [ 13.831129351826345, 46.162799674502729 ] } },
{ "type": "Feature", "properties": { "SYMBOL": "2301,1", "ANGLE": 0.000000, "name": "Stra&#382;a" }, "geometry": { "type": "Point", "coordinates": [ 13.97161383938499, 46.102610977742195 ] } },
{ "type": "Feature", "properties": { "SYMBOL": "2301,1", "ANGLE": 0.000000, "name": "Gori&#269;ane" }, "geometry": { "type": "Point", "coordinates": [ 14.401342298308322, 46.140298101328767 ] } },
{ "type": "Feature", "properties": { "SYMBOL": "2301,1", "ANGLE": 0.000000, "name": "Zbilje" }, "geometry": { "type": "Point", "coordinates": [ 14.420838385715303, 46.160238265538169 ] } },
{ "type": "Feature", "properties": { "SYMBOL": "2301,1", "ANGLE": 0.000000, "name": "Besnica" }, "geometry": { "type": "Point", "coordinates": [ 14.650487443940273, 46.040993516243525 ] } },
{ "type": "Feature", "properties": { "SYMBOL": "2301,1", "ANGLE": 0.000000, "name": "Spodnji Brnik" }, "geometry": { "type": "Point", "coordinates": [ 14.489086491939835, 46.235400467615747 ] } },
{ "type": "Feature", "properties": { "SYMBOL": "2301,1", "ANGLE": 0.000000, "name": "&#352;entanel" }, "geometry": { "type": "Point", "coordinates": [ 14.878948963198793, 46.572389411241609 ] } },
{ "type": "Feature", "properties": { "SYMBOL": "2301,1", "ANGLE": 0.000000, "name": "Vi&#269;" }, "geometry": { "type": "Point", "coordinates": [ 15.00428678906105, 46.605451809657524 ] } },
{ "type": "Feature", "properties": { "SYMBOL": "2301,1", "ANGLE": 0.000000, "name": "Nova Cerkev" }, "geometry": { "type": "Point", "coordinates": [ 15.290104133206345, 46.315886677082659 ] } },
{ "type": "Feature", "properties": { "SYMBOL": "2301,1", "ANGLE": 0.000000, "name": "Kra&#353;nja" }, "geometry": { "type": "Point", "coordinates": [ 14.754056288532041, 46.174405448607352 ] } },
{ "type": "Feature", "properties": { "SYMBOL": "2301,1", "ANGLE": 0.000000, "name": "Spodnji Log" }, "geometry": { "type": "Point", "coordinates": [ 14.897412181009722, 46.080694772360303 ] } },
{ "type": "Feature", "properties": { "SYMBOL": "2301,1", "ANGLE": 0.000000, "name": "Pernica" }, "geometry": { "type": "Point", "coordinates": [ 15.721906625689615, 46.575324960132377 ] } },
{ "type": "Feature", "properties": { "SYMBOL": "2301,1", "ANGLE": 0.000000, "name": "Bodonci" }, "geometry": { "type": "Point", "coordinates": [ 16.094392691566327, 46.739647355520212 ] } },
{ "type": "Feature", "properties": { "SYMBOL": "2301,1", "ANGLE": 0.000000, "name": "Lemerje" }, "geometry": { "type": "Point", "coordinates": [ 16.104771421684461, 46.709521901435281 ] } },
{ "type": "Feature", "properties": { "SYMBOL": "2301,1", "ANGLE": 0.000000, "name": "Perto&#269;a" }, "geometry": { "type": "Point", "coordinates": [ 16.038765973502766, 46.771539716164057 ] } },
{ "type": "Feature", "properties": { "SYMBOL": "2301,1", "ANGLE": 0.000000, "name": "Domanj&#353;evci" }, "geometry": { "type": "Point", "coordinates": [ 16.289581326892165, 46.783973516257802 ] } },
{ "type": "Feature", "properties": { "SYMBOL": "2301,1", "ANGLE": 0.000000, "name": "Hotiza" }, "geometry": { "type": "Point", "coordinates": [ 16.362449135216178, 46.552703421782425 ] } },
{ "type": "Feature", "properties": { "SYMBOL": "2301,1", "ANGLE": 0.000000, "name": "Velika Nedelja" }, "geometry": { "type": "Point", "coordinates": [ 16.114502862325889, 46.423194886364776 ] } },
{ "type": "Feature", "properties": { "SYMBOL": "2301,1", "ANGLE": 0.000000, "name": "Stojnci" }, "geometry": { "type": "Point", "coordinates": [ 15.976508802932086, 46.378163367944488 ] } },
{ "type": "Feature", "properties": { "SYMBOL": "2301,1", "ANGLE": 0.000000, "name": "Dolenji Bo&#353;tanj" }, "geometry": { "type": "Point", "coordinates": [ 15.284707274925136, 46.003602091653249 ] } },
{ "type": "Feature", "properties": { "SYMBOL": "2301,1", "ANGLE": 0.000000, "name": "Sobra&#269;e" }, "geometry": { "type": "Point", "coordinates": [ 14.872486477016324, 46.000163591471853 ] } },
{ "type": "Feature", "properties": { "SYMBOL": "2301,1", "ANGLE": 0.000000, "name": "Podlipoglav" }, "geometry": { "type": "Point", "coordinates": [ 14.627489468270653, 46.017166728124529 ] } },
{ "type": "Feature", "properties": { "SYMBOL": "2301,1", "ANGLE": 0.000000, "name": "Tomaj" }, "geometry": { "type": "Point", "coordinates": [ 13.858887868360052, 45.754606603689247 ] } },
{ "type": "Feature", "properties": { "SYMBOL": "2301,1", "ANGLE": 0.000000, "name": "Lokavec" }, "geometry": { "type": "Point", "coordinates": [ 13.883334944415106, 45.90102005882077 ] } },
{ "type": "Feature", "properties": { "SYMBOL": "2301,1", "ANGLE": 0.000000, "name": "&#268;rni Kal" }, "geometry": { "type": "Point", "coordinates": [ 13.884419078142775, 45.552400199838566 ] } },
{ "type": "Feature", "properties": { "SYMBOL": "2301,1", "ANGLE": 0.000000, "name": "Starod" }, "geometry": { "type": "Point", "coordinates": [ 14.198890548615697, 45.500044188019103 ] } },
{ "type": "Feature", "properties": { "SYMBOL": "2301,1", "ANGLE": 0.000000, "name": "Harija" }, "geometry": { "type": "Point", "coordinates": [ 14.203317357280747, 45.553390578688557 ] } },
{ "type": "Feature", "properties": { "SYMBOL": "2301,1", "ANGLE": 0.000000, "name": "&#381;vir&#269;e" }, "geometry": { "type": "Point", "coordinates": [ 14.825729073259202, 45.783884210979856 ] } },
{ "type": "Feature", "properties": { "SYMBOL": "2301,1", "ANGLE": 0.000000, "name": "Muljava" }, "geometry": { "type": "Point", "coordinates": [ 14.80418516835315, 45.90208051684094 ] } },
{ "type": "Feature", "properties": { "SYMBOL": "2301,1", "ANGLE": 0.000000, "name": "Dolenja vas" }, "geometry": { "type": "Point", "coordinates": [ 14.761238294386628, 45.708250256091731 ] } },
{ "type": "Feature", "properties": { "SYMBOL": "2301,1", "ANGLE": 0.000000, "name": "Spodnja Bilpa" }, "geometry": { "type": "Point", "coordinates": [ 14.972678548266162, 45.513533065329796 ] } },
{ "type": "Feature", "properties": { "SYMBOL": "2301,1", "ANGLE": 0.000000, "name": "Preloka" }, "geometry": { "type": "Point", "coordinates": [ 15.343423536362538, 45.470039729159012 ] } },
{ "type": "Feature", "properties": { "SYMBOL": "2301,1", "ANGLE": 0.000000, "name": "Bo&#382;akovo" }, "geometry": { "type": "Point", "coordinates": [ 15.368400101905593, 45.668509643770406 ] } },
{ "type": "Feature", "properties": { "SYMBOL": "2301,1", "ANGLE": 0.000000, "name": "Radovica" }, "geometry": { "type": "Point", "coordinates": [ 15.352061067283302, 45.687929177557827 ] } },
{ "type": "Feature", "properties": { "SYMBOL": "2301,1", "ANGLE": 0.000000, "name": "Dolnji Suhor" }, "geometry": { "type": "Point", "coordinates": [ 15.282266671695693, 45.691023035364644 ] } },
{ "type": "Feature", "properties": { "SYMBOL": "2301,1", "ANGLE": 0.000000, "name": "Velike Brusnice" }, "geometry": { "type": "Point", "coordinates": [ 15.268950925201681, 45.807061497475409 ] } },
{ "type": "Feature", "properties": { "SYMBOL": "2301,1", "ANGLE": 0.000000, "name": "Dobrava pri &#352;kocjanu" }, "geometry": { "type": "Point", "coordinates": [ 15.329560354149523, 45.874928076865089 ] } },
{ "type": "Feature", "properties": { "SYMBOL": "2301,1", "ANGLE": 0.000000, "name": "Bu&#353;e&#269;a vas" }, "geometry": { "type": "Point", "coordinates": [ 15.522234648696791, 45.867803918665984 ] } },
{ "type": "Feature", "properties": { "SYMBOL": "2301,1", "ANGLE": 0.000000, "name": "So&#269;erga" }, "geometry": { "type": "Point", "coordinates": [ 13.899579967737033, 45.464813183920853 ] } },
{ "type": "Feature", "properties": { "SYMBOL": "2301,1", "ANGLE": 0.000000, "name": "Bohinjska Bela" }, "geometry": { "type": "Point", "coordinates": [ 14.063706224430193, 46.340258807671546 ] } },
{ "type": "Feature", "properties": { "SYMBOL": "2301,1", "ANGLE": 0.000000, "name": "Preddvor" }, "geometry": { "type": "Point", "coordinates": [ 14.4235091240188, 46.303443132963601 ] } },
{ "type": "Feature", "properties": { "SYMBOL": "2301,1", "ANGLE": 0.000000, "name": "&#381;irovnica" }, "geometry": { "type": "Point", "coordinates": [ 14.147474463555051, 46.404008076800984 ] } },
{ "type": "Feature", "properties": { "SYMBOL": "2301,1", "ANGLE": 0.000000, "name": "Robidi&#353;&#269;e" }, "geometry": { "type": "Point", "coordinates": [ 13.419682745117322, 46.215806857511197 ] } },
{ "type": "Feature", "properties": { "SYMBOL": "2301,1", "ANGLE": 0.000000, "name": "Dornberk" }, "geometry": { "type": "Point", "coordinates": [ 13.743758841783205, 45.888297360738214 ] } },
{ "type": "Feature", "properties": { "SYMBOL": "2301,1", "ANGLE": 0.000000, "name": "Most na So&#269;i" }, "geometry": { "type": "Point", "coordinates": [ 13.746461495623663, 46.153532698535059 ] } },
{ "type": "Feature", "properties": { "SYMBOL": "2301,1", "ANGLE": 0.000000, "name": "Podbrezje" }, "geometry": { "type": "Point", "coordinates": [ 14.280169329257744, 46.305056167077197 ] } },
{ "type": "Feature", "properties": { "SYMBOL": "2301,1", "ANGLE": 0.000000, "name": "Lo&#269;ica pri Vranskem" }, "geometry": { "type": "Point", "coordinates": [ 14.9472042758368, 46.227229333085951 ] } },
{ "type": "Feature", "properties": { "SYMBOL": "2301,1", "ANGLE": 0.000000, "name": "Bistrica ob Sotli" }, "geometry": { "type": "Point", "coordinates": [ 15.666941928444752, 46.054183826766362 ] } },
{ "type": "Feature", "properties": { "SYMBOL": "2301,1", "ANGLE": 0.000000, "name": "Lo&#269;e" }, "geometry": { "type": "Point", "coordinates": [ 15.530972561629294, 46.299305457788293 ] } },
{ "type": "Feature", "properties": { "SYMBOL": "2301,1", "ANGLE": 0.000000, "name": "Podvelka" }, "geometry": { "type": "Point", "coordinates": [ 15.332816340706891, 46.584126277131823 ] } },
{ "type": "Feature", "properties": { "SYMBOL": "2301,1", "ANGLE": 0.000000, "name": "Cerkvenjak" }, "geometry": { "type": "Point", "coordinates": [ 15.947389931306178, 46.566330559915791 ] } },
{ "type": "Feature", "properties": { "SYMBOL": "2301,1", "ANGLE": 0.000000, "name": "Arja vas" }, "geometry": { "type": "Point", "coordinates": [ 15.19678994945035, 46.255217278067335 ] } },
{ "type": "Feature", "properties": { "SYMBOL": "2301,1", "ANGLE": 0.000000, "name": "Videm" }, "geometry": { "type": "Point", "coordinates": [ 14.69873221395671, 45.84860398678412 ] } },
{ "type": "Feature", "properties": { "SYMBOL": "2301,1", "ANGLE": 0.000000, "name": "&#352;martno v Tuhinju" }, "geometry": { "type": "Point", "coordinates": [ 14.734530955294842, 46.214579196477587 ] } },
{ "type": "Feature", "properties": { "SYMBOL": "2301,1", "ANGLE": 0.000000, "name": "Hrib - Lo&#353;ki Potok" }, "geometry": { "type": "Point", "coordinates": [ 14.595703863665641, 45.701773953350845 ] } },
{ "type": "Feature", "properties": { "SYMBOL": "2301,1", "ANGLE": 0.000000, "name": "Dramlje" }, "geometry": { "type": "Point", "coordinates": [ 15.395988253762589, 46.278795885192075 ] } },
{ "type": "Feature", "properties": { "SYMBOL": "2301,1", "ANGLE": 0.000000, "name": "Zgornja Kostrivnica" }, "geometry": { "type": "Point", "coordinates": [ 15.623916274980347, 46.253492604581368 ] } },
{ "type": "Feature", "properties": { "SYMBOL": "2301,1", "ANGLE": 0.000000, "name": "Imeno" }, "geometry": { "type": "Point", "coordinates": [ 15.600801360505679, 46.131409833327027 ] } },
{ "type": "Feature", "properties": { "SYMBOL": "2301,1", "ANGLE": 0.000000, "name": "Moste" }, "geometry": { "type": "Point", "coordinates": [ 14.557855973808621, 46.196955600877189 ] } },
{ "type": "Feature", "properties": { "SYMBOL": "2301,1", "ANGLE": 0.000000, "name": "Reka" }, "geometry": { "type": "Point", "coordinates": [ 13.932728938356361, 46.11682942851423 ] } },
{ "type": "Feature", "properties": { "SYMBOL": "2301,1", "ANGLE": 0.000000, "name": "Dragomelj" }, "geometry": { "type": "Point", "coordinates": [ 14.594165042425907, 46.109771734882962 ] } },
{ "type": "Feature", "properties": { "SYMBOL": "2301,1", "ANGLE": 0.000000, "name": "Spodnji Hoti&#269;" }, "geometry": { "type": "Point", "coordinates": [ 14.831239110932271, 46.093368451697195 ] } },
{ "type": "Feature", "properties": { "SYMBOL": "2301,1", "ANGLE": 0.000000, "name": "Velika Preska" }, "geometry": { "type": "Point", "coordinates": [ 14.963957756423873, 46.046658789126553 ] } },
{ "type": "Feature", "properties": { "SYMBOL": "2301,1", "ANGLE": 0.000000, "name": "Breg" }, "geometry": { "type": "Point", "coordinates": [ 15.243071031065357, 46.049044868992972 ] } },
{ "type": "Feature", "properties": { "SYMBOL": "2301,1", "ANGLE": 0.000000, "name": "Lesi&#269;no" }, "geometry": { "type": "Point", "coordinates": [ 15.525028696075792, 46.1038440575769 ] } },
{ "type": "Feature", "properties": { "SYMBOL": "2301,1", "ANGLE": 0.000000, "name": "Pi&#353;ece" }, "geometry": { "type": "Point", "coordinates": [ 15.65113949952165, 46.004135585961407 ] } },
{ "type": "Feature", "properties": { "SYMBOL": "2301,1", "ANGLE": 0.000000, "name": "Arto" }, "geometry": { "type": "Point", "coordinates": [ 15.390577475340921, 45.980010674005882 ] } },
{ "type": "Feature", "properties": { "SYMBOL": "2301,1", "ANGLE": 0.000000, "name": "Bo&#353;tanj" }, "geometry": { "type": "Point", "coordinates": [ 15.277378230751467, 46.009760783803969 ] } },
{ "type": "Feature", "properties": { "SYMBOL": "2301,1", "ANGLE": 0.000000, "name": "Raka" }, "geometry": { "type": "Point", "coordinates": [ 15.385671748368525, 45.928268075339588 ] } },
{ "type": "Feature", "properties": { "SYMBOL": "2301,1", "ANGLE": 0.000000, "name": "Krmelj" }, "geometry": { "type": "Point", "coordinates": [ 15.193521253165155, 45.985030537847678 ] } },
{ "type": "Feature", "properties": { "SYMBOL": "2301,1", "ANGLE": 0.000000, "name": "Veliko Mla&#269;evo" }, "geometry": { "type": "Point", "coordinates": [ 14.685483589735391, 45.936768632536847 ] } },
{ "type": "Feature", "properties": { "SYMBOL": "2301,1", "ANGLE": 0.000000, "name": "Krka" }, "geometry": { "type": "Point", "coordinates": [ 14.783005335476879, 45.880514548024564 ] } },
{ "type": "Feature", "properties": { "SYMBOL": "2301,1", "ANGLE": 0.000000, "name": "Bi&#269;" }, "geometry": { "type": "Point", "coordinates": [ 14.890253675383109, 45.929056013129298 ] } },
{ "type": "Feature", "properties": { "SYMBOL": "2301,1", "ANGLE": 0.000000, "name": "Dolenja Nem&#353;ka vas" }, "geometry": { "type": "Point", "coordinates": [ 15.048058029261057, 45.9051461644654 ] } },
{ "type": "Feature", "properties": { "SYMBOL": "2301,1", "ANGLE": 0.000000, "name": "&#352;kocjan" }, "geometry": { "type": "Point", "coordinates": [ 15.295808243230821, 45.905117133420305 ] } },
{ "type": "Feature", "properties": { "SYMBOL": "2301,1", "ANGLE": 0.000000, "name": "Drnovo" }, "geometry": { "type": "Point", "coordinates": [ 15.484813610436614, 45.919390145720804 ] } },
{ "type": "Feature", "properties": { "SYMBOL": "2301,1", "ANGLE": 0.000000, "name": "Podbo&#269;je" }, "geometry": { "type": "Point", "coordinates": [ 15.468971310649312, 45.863377205470947 ] } },
{ "type": "Feature", "properties": { "SYMBOL": "2301,1", "ANGLE": 0.000000, "name": "Laze" }, "geometry": { "type": "Point", "coordinates": [ 14.269614964032618, 45.861502326143217 ] } },
{ "type": "Feature", "properties": { "SYMBOL": "2301,1", "ANGLE": 0.000000, "name": "Zavrh" }, "geometry": { "type": "Point", "coordinates": [ 14.504237328700031, 45.828147893548305 ] } },
{ "type": "Feature", "properties": { "SYMBOL": "2301,1", "ANGLE": 0.000000, "name": "Go&#269;e" }, "geometry": { "type": "Point", "coordinates": [ 13.940388419059545, 45.818559508592813 ] } },
{ "type": "Feature", "properties": { "SYMBOL": "2301,1", "ANGLE": 0.000000, "name": "Kne&#382;ak" }, "geometry": { "type": "Point", "coordinates": [ 14.247320771277796, 45.624416509569357 ] } },
{ "type": "Feature", "properties": { "SYMBOL": "2301,1", "ANGLE": 0.000000, "name": "Dane" }, "geometry": { "type": "Point", "coordinates": [ 13.885634327104475, 45.723490590532315 ] } },
{ "type": "Feature", "properties": { "SYMBOL": "2301,1", "ANGLE": 0.000000, "name": "Kal" }, "geometry": { "type": "Point", "coordinates": [ 14.167272847938674, 45.664958195601827 ] } },
{ "type": "Feature", "properties": { "SYMBOL": "2301,1", "ANGLE": 0.000000, "name": "Artvi&#382;e" }, "geometry": { "type": "Point", "coordinates": [ 14.031114738828181, 45.61279375372429 ] } },
{ "type": "Feature", "properties": { "SYMBOL": "2301,1", "ANGLE": 0.000000, "name": "Zazid" }, "geometry": { "type": "Point", "coordinates": [ 13.935247613677481, 45.500920996430445 ] } },
{ "type": "Feature", "properties": { "SYMBOL": "2301,1", "ANGLE": 0.000000, "name": "Markov&#353;&#269;ina" }, "geometry": { "type": "Point", "coordinates": [ 14.038574101358847, 45.559069741479298 ] } },
{ "type": "Feature", "properties": { "SYMBOL": "2301,1", "ANGLE": 0.000000, "name": "Sinji Vrh" }, "geometry": { "type": "Point", "coordinates": [ 15.169568203039036, 45.452203794619926 ] } },
{ "type": "Feature", "properties": { "SYMBOL": "2301,1", "ANGLE": 0.000000, "name": "Markovci" }, "geometry": { "type": "Point", "coordinates": [ 15.931826900536576, 46.393717596772795 ] } },
{ "type": "Feature", "properties": { "SYMBOL": "2301,1", "ANGLE": 0.000000, "name": "Zgornja &#352;&#269;avnica" }, "geometry": { "type": "Point", "coordinates": [ 15.853217752743545, 46.650266257062206 ] } },
{ "type": "Feature", "properties": { "SYMBOL": "2301,1", "ANGLE": 0.000000, "name": "Vojsko" }, "geometry": { "type": "Point", "coordinates": [ 13.907308686346115, 46.023598888018157 ] } },
{ "type": "Feature", "properties": { "SYMBOL": "2301,1", "ANGLE": 0.000000, "name": "&#352;entrupert" }, "geometry": { "type": "Point", "coordinates": [ 15.091958505070238, 45.974897504859584 ] } },
{ "type": "Feature", "properties": { "SYMBOL": "2301,1", "ANGLE": 0.000000, "name": "Koprivnik" }, "geometry": { "type": "Point", "coordinates": [ 15.032335776804809, 45.602751408201421 ] } },
{ "type": "Feature", "properties": { "SYMBOL": "2301,1", "ANGLE": 0.000000, "name": "Jeruzalem" }, "geometry": { "type": "Point", "coordinates": [ 16.192119382780902, 46.474506544614378 ] } },
{ "type": "Feature", "properties": { "SYMBOL": "2301,1", "ANGLE": 0.000000, "name": "Grabono&#353;" }, "geometry": { "type": "Point", "coordinates": [ 15.999822208918031, 46.582012295124329 ] } },
{ "type": "Feature", "properties": { "SYMBOL": "2301,1", "ANGLE": 0.000000, "name": "Spodnje Gorje" }, "geometry": { "type": "Point", "coordinates": [ 14.071990285139526, 46.380273623937946 ] } },
{ "type": "Feature", "properties": { "SYMBOL": "2301,1", "ANGLE": 0.000000, "name": "Sava" }, "geometry": { "type": "Point", "coordinates": [ 14.896519475717517, 46.091086016444166 ] } },
{ "type": "Feature", "properties": { "SYMBOL": "2301,1", "ANGLE": 0.000000, "name": "Podstenice" }, "geometry": { "type": "Point", "coordinates": [ 15.018137357903996, 45.716670598035734 ] } },
{ "type": "Feature", "properties": { "SYMBOL": "2301,1", "ANGLE": 0.000000, "name": "Komenda" }, "geometry": { "type": "Point", "coordinates": [ 14.543580088311789, 46.20756092669604 ] } }
]
}
